     2.11           OBSERVATION DATA    G (GPS)             RINEX VERSION / TYPE
teqc  2016Apr1      bjfs                20200102 00:25:04UTCPGM / RUN BY / DATE
Linux 2.4.21-27.ELsmp|Opteron|gcc|Linux x86_64|=+           COMMENT
BIT 2 OF LLI FLAGS DATA COLLECTED UNDER A/S CONDITION       COMMENT
BJFS                                                        MARKER NAME
21601M001                                                   MARKER NUMBER
GNSS Observer       CASM                                    OBSERVER / AGENCY
5310K42306          TRIMBLE NETR9       4.85                REC # / TYPE / VERS
5317361110          TRM59900.00     SCIS                    ANT # / TYPE
 -2148744.6531  4426641.5827  4044656.5218                  APPROX POSITION XYZ
        0.0465        0.0000        0.0000                  ANTENNA: DELTA H/E/N
     1     1                                                WAVELENGTH FACT L1/2
     7    L1    L2    C1    P1    P2    S1    S2            # / TYPES OF OBSERV
    18                                                      LEAP SECONDS
 SNR is mapped to RINEX snr flag value [0-9]                COMMENT
  L1 & L2: min(max(int(snr_dBHz/6), 0), 9)                  COMMENT
  2020     1     1     0     0    0.0000000     GPS         TIME OF FIRST OBS
                                                            END OF HEADER
 20  1  1  0  0  0.0000000  0  9G05G13G29G30G24G20G15G21G02
 113986897.215 8  88820985.99246  21690985.055                    21690989.000
        48.800          38.700
 106699782.773 8  83142609.45747  20304267.891                    20304271.758
        49.100          44.600
 117116665.612 8  91259763.40845  22286562.039                    22286567.648
        48.300          35.700
 125268980.263 6  97612253.53443  23837902.133                    23837909.234
        37.900          22.600
 130209593.95915 101462066.76653  24778064.063                    24778073.316
        33.700          18.600
 128556955.77515 100174300.32352  24463584.719                    24463588.102
        33.700          16.300
 106302507.525 8  82833134.72147  20228692.656                    20228697.145
        52.500          45.800
 122039819.748 7  95095981.13344  23223408.063                    23223411.270
        44.100          29.700
 124793462.992 6  97241669.74943  23747407.180                    23747410.492
        38.900          23.800
 20  1  1  0  0 30.0000000  0  9G05G13G29G30G24G20G15G21G02
 114046205.526 8  88867200.25746  21702270.813                    21702275.953
        48.600          39.300
 106724506.346 8  83161874.59047  20308972.742                    20308976.422
        49.600          44.300
 117184745.564 7  91312812.70745  22299517.297                    22299522.441
        47.400          35.500
 125304634.588 6  97640036.11944  23844687.203                    23844694.445
        37.600          24.200
 130096965.918 5 101374304.71342  24756632.547                    24756640.684
        34.100          17.800
 128469603.29715 100106233.53052  24446961.188                    24446966.078
        33.500          16.300
 106266195.609 8  82804839.73247  20221782.602                    20221787.098
        51.900          45.900
 121962309.728 7  95035583.71145  23208657.914                    23208661.711
        44.200          30.200
 124889624.336 6  97316600.63744  23765706.047                    23765709.043
        39.500          24.900
 20  1  1  0  1  0.0000000  0  9G05G13G29G30G24G20G15G21G02
 114105695.842 8  88913556.34246  21713591.461                    21713595.863
        48.200          38.800
 106749759.455 8  83181552.34147  20313778.242                    20313782.148
        48.800          43.700
 117253249.650 8  91366192.49245  22312553.172                    22312558.586
        48.000          34.800
 125340800.491 6  97668217.31944  23851569.320                    23851576.527
        39.000          24.700
 129984269.76215 101286489.56053  24735185.945                    24735195.711
        32.600          18.600
 128382254.690 5 100038169.64842  24430338.672                    24430343.516
        33.200          16.900
 106230390.875 8  82776939.94247  20214969.445                    20214973.770
        52.100          45.600
 121884979.604 7  94975326.46444  23193942.648                    23193945.957
        44.600          29.100
 124986002.476 6  97391700.46144  23784046.461                    23784049.191
        40.000          25.500
 20  1  1  0  1 30.0000000  0  9G05G13G29G30G24G20G15G21G02
 114165366.078 8  88960052.61646  21724946.703                    21724950.977
        48.700          39.200
 106775538.592 8  83201639.98347  20318683.672                    20318687.777
        49.100          44.000
 117322173.129 7  91419899.08945  22325669.094                    22325674.102
        47.900          35.200
 125377474.863 6  97696794.76544  23858547.750                    23858555.063
        38.900          26.800
 129871505.884 5 101198621.60442  24713728.484                    24713736.809
        31.800          17.400
 128294908.606 5  99970107.81442  24413718.453                    24413721.535
        33.200          16.300
 106195091.769 8  82749434.14747  20208252.031                    20208256.324
        52.300          45.800
 121807829.442 7  94915209.44145  23179261.297                    23179265.215
        44.100          30.400
 125082593.813 6  97466966.39444  23802427.203                    23802430.199
        40.400          24.000
 20  1  1  0  2  0.0000000  0  9G05G13G29G30G24G20G15G21G02
 114225221.058 8  89006692.86946  21736336.500                    21736340.891
        48.200          38.900
 106801847.541 8  83222140.47547  20323689.984                    20323694.094
        48.800          43.200
 117391518.388 8  91473934.33646  22338864.836                    22338870.316
        48.300          36.100
 125414662.171 6  97725771.87343  23865624.500                    23865631.504
        39.700          23.800
 129758682.539 5 101110707.36443  24692258.789                    24692267.504
        32.500          19.600
 128207570.66715  99902052.21352  24397098.477                    24397101.711
        33.100          15.600
 106160303.371 8  82722326.31247  20201632.164                    20201636.184
        51.400          45.700
 121730866.610 7  94855238.39944  23164615.172                    23164619.426
        44.600          29.900
 125179401.763 6  97542401.14744  23820848.352                    23820852.207
        39.200          24.300
 20  1  1  0  2 30.0000000  0  9G05G13G29G30G24G20G15G21G02
 114285253.303 8  89053471.22446  21747760.555                    21747764.902
        48.600          38.700
 106828678.037 8  83243047.35647  20328795.523                    20328799.543
        48.700          44.300
 117461275.353 7  91528290.38946  22352139.547                    22352145.223
        47.800          36.300
 125452354.612 6  97755142.60944  23872796.797                    23872804.156
        38.600          26.000
 129645795.507 5 101022743.47742  24670777.102                    24670784.926
        32.500          17.800
 128120234.37715  99833998.00252  24380478.945                    24380482.332
        33.600          16.900
 106126019.483 8  82695611.59947  20195107.953                    20195112.410
        51.500          45.900
 121654086.460 7  94795409.70445  23150004.969                    23150008.594
        43.400          30.900
 125276417.907 6  97617998.09344  23839310.570                    23839314.332
        40.500          24.600
 20  1  1  0  3  0.0000000  0  9G05G13G29G30G24G20G15G21G02
 114345465.436 8  89100389.75246  21759218.297                    21759222.844
        48.200          37.700
 106856031.202 8  83264361.51347  20334000.695                    20334004.875
        48.800          42.600
 117531444.221 7  91582967.41445  22365492.281                    22365497.152
        47.300          34.400
 125490553.829 6  97784908.23643  23880066.734                    23880073.273
        38.300          23.800
 129532849.899 5 100934733.96742  24649284.547                    24649293.023
        32.200          17.800
 128032903.143 5  99765947.66142  24363860.250                    24363864.148
        33.800          16.300
 106092242.615 8  82669291.96547  20188680.469                    20188684.836
        51.800          44.600
 121577493.250 7  94735726.67944  23135430.195                    23135433.543
        44.200          29.400
 125373643.185 6  97693758.02143  23857812.445                    23857815.223
        40.400          22.500
 20  1  1  0  3 30.0000000  0  9G05G13G29G30G24G20G15G21G02
 114405858.918 8  89147449.60346  21770710.836                    21770715.320
        48.800          38.500
 106883906.831 8  83286082.78347  20339305.516                    20339309.563
        48.700          44.200
 117602023.909 8  91637964.55745  22378923.188                    22378928.336
        48.500          35.900
 125529260.675 6  97815069.39944  23887432.313                    23887438.520
        38.600          24.100
 129419850.329 5 100846682.37143  24627781.648                    24627789.559
        33.000          18.300
 127945578.88315  99697902.81152  24347242.805                    24347246.891
        33.500          15.600
 106058974.902 8  82643369.07647  20182350.102                    20182353.965
        51.400          46.300
 121501091.051 7  94676192.48745  23120891.000                    23120894.738
        44.200          31.600
 125471077.867 6  97769681.11744  23876353.430                    23876355.926
        41.100          24.500
 20  1  1  0  4  0.0000000  0  9G05G13G29G30G24G20G15G21G02
 114466430.004 8  89194647.83946  21782237.508                    21782241.887
        48.100          37.500
 106912300.637 8  83308207.83047  20344708.359                    20344712.395
        48.600          43.200
 117673008.132 8  91693276.91645  22392431.086                    22392436.211
        48.200          35.300
 125568470.901 6  97845622.83944  23894894.000                    23894900.258
        38.400          25.300
 129306796.77015 100758588.76852  24606267.266                    24606275.594
        33.300          16.900
 127858259.048 5  99629861.33742  24330627.211                    24330629.988
        34.600          16.900
 106026212.952 8  82617840.28647  20176115.625                    20176119.898
        51.400          45.400
 121424878.701 7  94616806.23745  23106388.211                    23106392.164
        44.500          30.400
 125568716.933 6  97845763.48244  23894933.172                    23894936.559
        40.300          24.300
 20  1  1  0  4 30.0000000  0  9G05G13G29G30G24G20G15G21G02
 114527183.221 8  89241987.99546  21793798.117                    21793802.453
        48.100          38.300
 106941215.478 8  83330738.87447  20350210.766                    20350214.883
        48.700          44.100
 117744398.837 8  91748906.00745  22406015.992                    22406021.207
        48.200          35.700
 125608188.079 6  97876571.26944  23902451.039                    23902457.992
        38.200          24.700
 129193695.850 5 100670458.23842  24584744.633                    24584753.836
        32.500          16.300
 127770948.55215  99561827.20153  24314012.086                    24314015.688
        34.700          18.300
 105993961.658 8  82592709.41347  20169978.336                    20169982.414
        51.600          46.300
 121348862.440 7  94557572.78045  23091923.008                    23091927.195
        44.100          31.800
 125666563.241 6  97922007.32044  23913553.531                    23913556.078
        39.800          24.100
 20  1  1  0  5  0.0000000  0  9G05G13G29G30G24G20G15G21G02
 114588111.840 8  89289464.84646  21805392.609                    21805396.625
        48.000          38.500
 106970642.982 8  83353669.39047  20355810.961                    20355814.391
        48.800          43.900
 117816186.429 7  91804844.36645  22419676.711                    22419681.762
        47.900          35.300
 125648404.657 6  97907908.84644  23910104.156                    23910111.887
        37.700          26.400
 129080543.837 5 100582287.88643  24563213.078                    24563220.969
        33.500          18.300
 127683641.559 5  99493795.79642  24297398.156                    24297402.242
        35.300          16.900
 105962214.499 8  82567971.36347  20163937.258                    20163941.441
        51.600          46.100
 121273038.010 7  94498488.80345  23077494.273                    23077497.824
        44.600          31.400
 125764608.417 6  97998406.15143  23932210.531                    23932213.816
        40.300          22.800
 20  1  1  0  5 30.0000000  0  9G05G13G29G30G24G20G15G21G02
 114649220.403 8  89337081.88846  21817021.133                    21817025.930
        48.300          38.000
 107000586.968 8  83377002.36647  20361508.766                    20361512.809
        48.600          44.300
 117888372.969 8  91861093.58745  22433413.609                    22433418.422
        48.300          34.800
 125689124.660 6  97939638.71144  23917853.336                    23917859.977
        38.300          25.000
 128967348.812 5 100494084.02443  24541672.711                    24541681.109
        32.800          18.300
 127596343.598 5  99425771.39543  24280785.742                    24280789.855
        35.600          19.000
 105930976.654 8  82543630.18647  20157992.602                    20157997.207
        51.700          46.200
 121197412.234 7  94439559.62045  23063103.219                    23063106.383
        44.200          32.200
 125862856.049 6  98074962.69244  23950906.867                    23950910.078
        40.600          25.300
 20  1  1  0  6  0.0000000  0  9G05G13G29G30G24G20G15G21G02
 114710507.636 7  89384838.15146  21828683.344                    21828687.852
        47.800          38.400
 107031044.136 8  83400735.22047  20367304.781                    20367308.578
        48.600          43.400
 117960954.765 8  91917650.81445  22447225.414                    22447230.660
        48.000          35.400
 125730345.788 6  97971759.06144  23925697.688                    23925704.563
        38.800          26.000
 128854112.191 5 100405847.76942  24520123.672                    24520133.168
        33.200          17.400
 127509053.695 5  99357753.30543  24264175.109                    24264179.102
        35.200          18.300
 105900247.224 8  82519685.17447  20152145.141                    20152149.727
        51.400          46.200
 121121986.255 7  94380786.12245  23048750.141                    23048753.723
        45.100          32.600
 125961303.247 6  98151674.78143  23969640.719                    23969643.766
        40.500          23.200
 20  1  1  0  6 30.0000000  0  9G05G13G29G30G24G20G15G21G02
 114771972.652 8  89432732.94646  21840380.086                    21840384.469
        48.200          37.600
 107062012.120 8  83424866.11547  20373197.688                    20373201.531
        49.000          43.600
 118033927.790 8  91974512.88245  22461111.484                    22461116.563
        48.100          35.200
 125772066.313 6  98004268.54444  23933635.969                    23933643.648
        38.800          24.900
 128740836.475 5 100317581.06742  24498568.414                    24498577.957
        34.100          17.400
 127421772.055 6  99289741.60043  24247565.992                    24247570.008
        36.100          19.600
 105870025.361 8  82496135.67147  20146393.750                    20146398.496
        51.400          46.000
 121046760.989 7  94322169.03045  23034435.086                    23034438.273
        44.900          32.100
 126059947.377 6  98228540.34044  23988411.961                    23988415.289
        40.000          24.600
 20  1  1  0  7  0.0000000  0  9G05G13G29G30G24G20G15G21G02
 114833616.398 7  89480767.01846  21852110.250                    21852115.066
        47.900          38.600
 107093491.564 8  83449395.54747  20379188.242                    20379191.938
        48.800          43.900
 118107290.920 7  92031678.92945  22475071.891                    22475077.000
        47.800          34.700
 125814286.828 6  98037167.64644  23941670.813                    23941677.398
        38.800          24.400
 128627525.341 5 100229286.67942  24477006.172                    24477015.215
        34.300          17.800
 127334500.686 5  99221737.96142  24230958.211                    24230962.563
        35.400          17.400
 105840312.963 8  82472983.15147  20140739.805                    20140744.254
        51.600          46.100
 120971740.397 7  94263711.42345  23020159.242                    23020162.641
        44.700          33.200
 126158788.294 6  98305559.18144  24007220.961                    24007224.332
        39.800          24.900
 20  1  1  0  7 30.0000000  0  9G05G13G29G30G24G20G15G21G02
 114895437.025 8  89528938.92346  21863874.320                    21863878.953
        48.000          37.100
 107125478.817 8  83474320.68047  20385275.281                    20385279.344
        49.000          43.700
 118181039.850 8  92089145.60645  22489106.039                    22489111.121
        48.000          34.800
 125857004.461 6  98070454.09844  23949799.227                    23949806.563
        39.000          25.400
 128514180.459 5 100140966.10042  24455438.578                    24455446.020
        34.000          17.800
 127247238.391 5  99153741.39942  24214353.555                    24214356.969
        35.400          17.800
 105811108.144 8  82450226.15347  20135182.570                    20135186.809
        51.300          46.100
 120896924.093 7  94205412.99945  23005922.734                    23005925.773
        45.600          32.600
 126257823.147 6  98382729.17343  24026065.734                    24026069.418
        39.900          23.000
 20  1  1  0  8  0.0000000  0  9G05G13G29G30G24G20G15G21G02
 114957434.392 7  89577248.54446  21875672.086                    21875676.324
        47.600          37.700
 107157971.855 8  83499639.92547  20391458.367                    20391462.324
        48.900          43.800
 118255171.331 7  92146910.37145  22503212.570                    22503217.809
        47.200          34.700
 125900218.030 6  98104127.00344  23958023.211                    23958029.730
        39.100          24.500
 128400804.616 5 100052621.31443  24433862.953                    24433871.184
        33.600          19.000
 127159986.102 5  99085752.59642  24197748.117                    24197753.484
        35.400          17.800
 105782411.071 8  82427864.80047  20129721.844                    20129725.836
        51.300          46.200
 120822315.536 7  94147276.45445  22991724.320                    22991727.887
        45.000          33.200
 126357049.597 6  98460048.47843  24044948.398                    24044951.922
        39.400          22.500
 20  1  1  0  8 30.0000000  0  9G05G13G29G30G24G20G15G21G02
 115019606.808 8  89625694.56646  21887503.281                    21887507.840
        48.100          37.200
 107190967.878 8  83525351.10847  20397737.281                    20397741.215
        49.300          43.700
 118329681.213 7  92204969.99245  22517391.367                    22517396.750
        47.200          34.000
 125943925.318 6  98138184.61744  23966340.523                    23966347.320
        38.900          24.100
 128287399.159 5  99964253.47343  24412283.078                    24412290.641
        33.400          19.600
 127072742.76315  99017770.77152  24181146.539                    24181151.184
        35.900          17.400
 105754220.536 8  82405898.15247  20124356.906                    20124361.355
        51.600          46.200
 120747914.706 7  94089301.77745  22977566.234                    22977570.359
        45.100          32.600
 126456464.920 6  98537514.93543  24063867.258                    24063870.176
        39.900          22.000
 20  1  1  0  9  0.0000000  0  9G05G13G29G30G24G20G15G21G02
 115081954.829 7  89674277.42346  21899367.852                    21899372.551
        47.400          38.200
 107224465.702 8  83551453.30447  20404111.930                    20404115.438
        49.200          43.300
 118404566.790 7  92263322.36145  22531641.586                    22531647.004
        47.600          33.300
 125988125.382 6  98172626.19444  23974751.570                    23974757.723
        39.900          25.100
 128173967.912 5  99875865.55743  24390697.281                    24390705.230
        33.800          20.600
 126985509.073 5  98949796.47543  24164547.797                    24164551.918
        35.700          19.600
 105726536.989 8  82384326.55747  20119089.273                    20119093.508
        51.700          46.200
 120673724.208 7  94031491.00045  22963448.719                    22963452.348
        45.200          33.500
 126556067.631 6  98615127.41243  24082820.789                    24082823.766
        39.300          22.900
 20  1  1  0  9 30.0000000  0  9G05G13G29G30G24G20G15G21G02
 115144479.763 7  89722998.13646  21911265.750                    21911270.648
        47.300          37.000
 107258465.062 8  83577946.31447  20410581.617                    20410585.137
        49.100          43.600
 118479826.825 7  92321966.51145  22545963.531                    22545968.551
        47.400          33.900
 126032818.651 6  98207452.12944  23983255.688                    23983263.023
        39.200          24.700
 128060514.436 5  99787460.22743  24369108.094                    24369115.941
        33.800          19.300
 126898287.66816  98881831.73353  24147951.305                    24147953.695
        36.600          18.600
 105699361.892 8  82363151.16147  20113917.711                    20113922.352
        51.800          46.600
 120599747.843 7  93973847.06945  22949371.320                    22949375.109
        46.000          33.000
 126655857.811 6  98692885.97643  24101809.891                    24101812.992
        39.700          21.500
 20  1  1  0 10  0.0000000  0  9G05G13G29G30G24G20G15G21G02
 115207180.690 7  89771855.98446  21923197.344                    21923201.777
        47.400          37.700
 107292964.332 8  83604828.86347  20417146.508                    20417150.512
        48.900          44.100
 118555458.036 8  92380899.89545  22560355.438                    22560360.449
        48.200          34.700
 126078003.628 6  98242661.16544  23991854.414                    23991861.387
        39.400          26.300
 127947042.197 5  99699040.33843  24347514.914                    24347523.344
        34.000          18.600
 126811078.559 6  98813876.59643  24131354.867                    24131359.188
        37.000          19.000
 105672694.812 8  82342371.62247  20108843.102                    20108847.359
        52.000          46.800
 120525986.994 7  93916371.08645  22935335.430                    22935339.113
        46.300          33.900
 126755833.260 6  98770788.89343  24120834.250                    24120837.766
        38.100          21.100
 20  1  1  0 10 30.0000000  0  9G05G13G29G30G24G20G15G21G02
 115270055.475 7  89820849.30946  21935162.125                    21935166.250
        47.300          37.700
 107327959.799 8  83632098.06347  20423805.992                    20423809.879
        48.900          43.900
 118631455.996 7  92440119.05545  22574817.672                    22574822.590
        47.900          34.200
 126123677.599 6  98278251.28244  24000545.430                    24000552.824
        39.400          24.800
 127833551.667 5  99610606.19943  24325918.219                    24325925.922
        33.900          18.600
 126723880.856 6  98745930.31243  24114761.219                    24114765.949
        37.000          19.000
 105646534.161 8  82321986.70147  20103864.805                    20103869.309
        51.800          46.600
 120452442.152 7  93859063.41245  22921340.281                    22921343.445
        46.500          33.900
 126855990.791 6  98848833.67943  24139894.094                    24139896.965
        38.400          21.700
 20  1  1  0 11  0.0000000  0  9G05G13G29G30G24G20G15G21G02
 115333106.461 7  89869979.92746  21947160.375                    21947164.832
        47.300          37.800
 107363451.806 8  83659754.17347  20430560.016                    20430563.762
        49.300          44.000
 118707819.943 7  92499623.39945  22589349.016                    22589354.645
        47.700          34.700
 126169841.343 6  98314223.02344  24009330.578                    24009337.477
        40.200          25.200
 127720048.222 5  99522161.96643  24304319.320                    24304327.086
        34.500          19.900
 126636697.220 6  98677995.01743  24098171.805                    24098175.730
        37.300          20.100
 105620882.171 8  82301998.14547  20098983.672                    20098987.902
        51.800          46.900
 120379117.695 7  93801927.46645  22907386.445                    22907390.484
        46.200          34.200
 126956330.508 6  98927020.44343  24158987.641                    24158991.160
        38.400          19.900
 20  1  1  0 11 30.0000000  0  9G05G13G29G30G24G20G15G21G02
 115396332.495 7  89919246.95246  21959192.078                    21959196.570
        47.300          37.300
 107399437.475 8  83687794.95447  20437407.570                    20437411.520
        49.100          43.700
 118784545.037 8  92559409.16545  22603949.742                    22603954.832
        48.000          34.300
 126216492.359 6  98350574.44544  24018206.953                    24018215.547
        39.700          25.100
 127606533.56115  99433708.98053  24282718.547                    24282726.141
        35.200          19.600
 126549526.870 6  98610070.09243  24081583.781                    24081588.117
        37.200          19.600
 105595737.353 8  82282404.78847  20094198.656                    20094203.176
        51.900          46.400
 120306013.988 7  93744963.53845  22893475.672                    22893479.004
        45.900          33.800
 127056849.398 6  99005346.83243  24178115.711                    24178118.762
        37.100          19.300
 20  1  1  0 12  0.0000000  0  9G05G13G29G30G24G20G15G21G02
 115459731.435 7  89968648.70446  21971256.008                    21971261.152
        47.200          37.800
 107435913.571 8  83716217.88447  20444348.875                    20444352.324
        49.300          43.900
 118861627.451 7  92619473.35745  22618617.563                    22618622.930
        46.800          34.400
 126263628.123 6  98387303.58944  24027178.086                    24027184.520
        40.000          25.400
 127493008.766 5  99345248.12643  24261114.797                    24261122.719
        35.800          20.900
 126462369.321 6  98542155.12043  24064997.898                    24065002.109
        37.200          20.600
 105571098.258 8  82263205.50047  20089510.273                    20089514.492
        51.800          47.200
 120233132.670 7  93688172.89045  22879607.117                    22879610.602
        47.000          34.000
 127157544.562 6  99083810.57343  24197277.547                    24197280.758
        37.700          20.400
 20  1  1  0 12 30.0000000  0  9G05G13G29G30G24G20G15G21G02
 115523304.040 7  90018185.78646  21983353.422                    21983358.508
        47.200          37.200
 107472879.483 8  83745022.48747  20451383.266                    20451387.332
        49.300          42.800
 118939065.173 7  92679814.40945  22633354.172                    22633358.941
        47.800          34.000
 126311248.202 6  98424410.13243  24036239.336                    24036245.973
        40.200          22.300
 127379478.419 5  99256782.90243  24239511.172                    24239518.805
        35.900          20.100
 126375226.070 6  98474251.27743  24048415.492                    24048419.328
        37.000          20.100
 105546965.794 8  82244400.98547  20084917.898                    20084922.242
        52.100          46.300
 120160476.500 7  93631557.69845  22865780.625                    22865784.617
        46.400          34.100
 127258415.063 6  99162410.89643  24216473.039                    24216475.441
        37.400          19.300
 20  1  1  0 13  0.0000000  0  9G05G13G29G30G24G20G15G21G02
 115587048.980 7  90067857.14646  21995483.664                    21995488.523
        47.500          37.000
 107510332.095 8  83774206.33947  20458510.250                    20458514.285
        48.800          43.700
 119016853.972 8  92740429.03445  22648156.930                    22648161.945
        48.000          34.400
 126359350.157 6  98461892.16344  24045393.180                    24045400.520
        39.600          24.100
 127265943.282 5  99168313.98043  24217906.305                    24217913.789
        35.900          21.100
 126288095.782 6  98406357.56643  24031835.000                    24031839.094
        37.900          21.100
 105523338.696 8  82225990.26447  20080421.773                    20080426.246
        51.800          47.300
 120088045.942 7  93575118.29845  22851997.617                    22852001.484
        46.000          34.800
 127359457.826 5  99241145.47343  24235700.500                    24235703.145
        35.800          19.000
 20  1  1  0 13 30.0000000  0  9G05G13G29G30G24G20G15G21G02
 115650969.046 7  90117664.96646  22007647.375                    22007652.285
        47.300          36.900
 107548272.471 8  83803770.27147  20465729.852                    20465733.984
        49.900          42.300
 119094993.289 7  92801316.80145  22663026.258                    22663031.109
        47.200          32.100
 126407935.558 6  98499750.88543  24054639.109                    24054645.797
        39.400          22.300
 127152409.605 5  99079846.15343  24196301.977                    24196309.586
        35.800          20.400
 126200983.257 6  98338477.65543  24015257.430                    24015262.082
        37.900          19.600
 105500219.489 8  82207975.29947  20076022.539                    20076026.570
        52.600          45.700
 120015846.110 7  93518858.68845  22838258.602                    22838262.512
        46.300          32.600
 127460674.282 6  99320015.42243  24254961.828                    24254964.121
        37.000          18.300
 20  1  1  0 14  0.0000000  0  9G05G13G29G30G24G20G15G21G02
 115715063.612 7  90167608.76046  22019844.453                    22019848.879
        47.300          37.700
 107586698.408 8  83833712.56347  20473042.086                    20473046.316
        49.100          43.400
 119173480.278 7  92862475.46245  22677961.797                    22677966.785
        47.300          34.500
 126457002.735 6  98537985.01344  24063975.563                    24063982.820
        39.100          25.000
 127038880.126 5  98991381.63843  24174698.008                    24174705.777
        35.500          20.400
 126113888.096 6  98270611.27543  23998683.742                    23998688.109
        37.500          19.600
 105477607.827 8  82190355.82147  20071719.211                    20071723.871
        52.700          47.200
 119943878.340 7  93462779.90245  22824563.633                    22824567.387
        45.900          33.600
 127562062.046 5  99399018.82743  24274254.258                    24274257.883
        34.900          19.300
 20  1  1  0 14 30.0000000  0  9G05G13G29G30G24G20G15G21G02
 115779328.649 7  90217685.39046  22032073.234                    22032078.074
        47.500          37.600
 107625604.044 8  83864028.63347  20480445.695                    20480449.785
        49.900          43.000
 119252307.767 7  92923899.46245  22692961.773                    22692967.043
        47.300          34.000
 126506546.441 6  98576590.47843  24073403.406                    24073411.133
        39.100          22.600
 126925353.437 5  98902919.28943  24153093.813                    24153101.496
        35.400          19.900
 126026806.998 6  98202755.91443  23982112.859                    23982117.133
        37.700          19.900
 105455499.550 8  82173128.60247  20067512.352                    20067516.707
        52.400          47.000
 119872141.031 7  93406880.70045  22810912.383                    22810915.965
        46.500          34.400
 127663615.361 5  99478151.22342  24293579.289                    24293582.930
        35.400          17.800
 20  1  1  0 15  0.0000000  0  9G05G13G29G30G24G20G15G21G02
 115843766.028 8  90267896.31746  22044335.359                    22044340.512
        48.600          37.700
 107664990.033 8  83894719.01047  20487940.602                    20487944.789
        48.800          43.000
 119331475.245 7  92985588.37245  22708027.398                    22708031.859
        46.900          33.400
 126556567.607 6  98615567.98343  24082921.898                    24082929.387
        38.900          22.900
 126811835.699 6  98814463.89643  24131492.133                    24131499.965
        36.300          21.500
 125939742.988 6  98134913.82043  23965545.430                    23965549.270
        37.300          19.900
 105433896.917 8  82156295.38247  20063401.594                    20063405.879
        52.000          47.100
 119800639.472 7  93351165.19145  22797305.883                    22797309.633
        46.200          34.000
 127765335.091 5  99557413.36143  24312936.203                    24312939.746
        35.600          19.000
 20  1  1  0 15 30.0000000  0  9G05G13G29G30G24G20G15G21G02
 115908375.057 8  90318241.00646  22056630.141                    22056635.094
        48.400          37.400
 107704853.964 8  83925781.80447  20495526.602                    20495530.313
        49.100          43.900
 119410978.895 7  93047539.24745  22723156.359                    22723161.875
        47.000          34.200
 126607064.444 6  98654916.16744  24092531.109                    24092538.414
        38.200          24.400
 126698328.230 6  98726016.51743  24109892.570                    24109900.414
        36.200          21.300
 125852696.116 6  98067085.08643  23948980.820                    23948984.637
        38.600          19.900
 105412799.052 8  82139855.48547  20059386.555                    20059390.934
        52.300          47.200
 119729374.435 7  93295634.00145  22783744.867                    22783748.316
        45.300          35.200
 127867218.757 5  99636803.16843  24332323.891                    24332327.488
        35.000          19.000
 20  1  1  0 16  0.0000000  0  9G05G13G29G30G24G20G15G21G02
 115973157.809 8  90368721.05346  22068958.328                    22068963.035
        48.400          38.400
 107745196.283 8  83957217.36947  20503203.438                    20503207.414
        49.400          43.900
 119490817.821 7  93109751.37845  22738348.977                    22738354.164
        47.000          33.300
 126658037.590 6  98694635.48144  24102231.258                    24102239.063
        38.700          24.000
 126584836.421 6  98637581.33443  24088295.781                    24088303.863
        36.600          21.100
 125765669.067 6  97999271.78443  23932420.406                    23932423.203
        38.100          20.900
 105392208.085 8  82123810.57447  20055468.367                    20055472.438
        53.100          47.600
 119658349.980 7  93240290.26445  22770229.336                    22770232.906
        45.200          34.400
 127969266.462 5  99716320.77843  24351743.242                    24351747.184
        34.300          18.600
 20  1  1  0 16 30.0000000  0  9G05G13G29G30G24G20G15G21G02
 116038110.155 8  90419333.27446  22081318.063                    22081322.609
        48.400          37.600
 107786011.378 8  83989021.33747  20510970.102                    20510974.340
        50.300          43.500
 119570985.731 7  93172219.85945  22753604.406                    22753609.590
        46.300          33.300
 126709482.106 6  98734722.10643  24112020.891                    24112027.883
        38.600          22.800
 126471359.910 6  98549158.08843  24066701.500                    24066709.301
        36.800          22.000
 125678659.394 6  97931472.02743  23915862.367                    23915866.605
        37.600          20.400
 105372120.038 8  82108157.55647  20051645.617                    20051649.977
        53.000          47.200
 119587565.122 7  93185133.23045  22756759.313                    22756762.992
        45.600          34.300
 128071472.868 5  99795962.10143  24371192.258                    24371195.406
        34.400          18.300
 20  1  1  0 17  0.0000000  0  9G05G13G29G30G24G20G15G21G02
 116103232.298 8  90470077.78846  22093710.367                    22093715.516
        48.900          37.800
 107827297.740 8  84021192.51847  20518826.852                    20518830.980
        49.800          43.300
 119651479.358 7  93234942.14245  22768922.242                    22768927.203
        46.000          32.700
 126761396.826 6  98775175.14043  24121900.305                    24121907.301
        38.900          22.500
 126357901.678 6  98460749.11043  24045111.133                    24045119.387
        37.100          21.800
 125591667.662 6  97863686.28943  23899308.109                    23899311.863
        38.100          19.900
 105352534.872 8  82092896.38947  20047918.711                    20047923.262
        53.200          47.500
 119517021.927 7  93130164.50545  22743335.164                    22743338.918
        45.000          34.800
 128173836.642 5  99875726.06942  24390671.641                    24390675.219
        34.500          17.800
 20  1  1  0 17 30.0000000  0  9G05G13G29G30G24G20G15G21G02
 116168527.300 8  90520957.00246  22106135.656                    22106140.477
        48.800          37.700
 107869056.121 8  84053731.51747  20526772.953                    20526777.012
        49.900          43.400
 119732298.863 7  93297918.35745  22784301.242                    22784306.762
        46.200          32.000
 126813783.282 6  98815995.78143  24131868.977                    24131875.934
        38.800          22.900
 126244467.998 6  98372359.24743  24023524.977                    24023533.648
        37.100          22.000
 125504697.754 6  97795917.53643  23882758.297                    23882762.309
        38.300          20.600
 105333455.475 8  82078029.32547  20044288.133                    20044292.406
        53.400          47.400
 119446725.761 7  93075388.26745  22729958.211                    22729962.152
        45.700          34.900
 128276358.859 5  99955613.44743  24410181.281                    24410185.137
        35.500          18.300
 20  1  1  0 18  0.0000000  0  9G05G13G29G30G24G20G15G21G02
 116233992.989 8  90571969.21246  22118593.352                    22118598.383
        49.200          37.900
 107911283.304 8  84086635.81047  20534808.914                    20534812.625
        50.600          43.100
 119813439.790 7  93361145.02445  22799742.023                    22799747.004
        46.100          31.900
 126866638.360 6  98857181.56043  24141926.906                    24141934.242
        38.400          23.300
 126131059.835 6  98283989.25943  24001944.922                    24001952.871
        36.800          22.300
 125417748.365 6  97728164.78443  23866212.336                    23866216.961
        38.100          20.900
 105314879.685 8  82063554.68447  20040753.203                    20040757.813
        53.500          47.600
 119376676.834 7  93020804.67945  22716628.641                    22716631.848
        45.800          34.700
 128379036.00515 100035621.57553  24429719.391                    24429723.109
        34.300          18.300
 20  1  1  0 18 30.0000000  0  9G05G13G29G30G24G20G15G21G02
 116299627.781 8  90623113.19346  22131083.469                    22131088.109
        49.000          37.600
 107953975.626 8  84119902.55847  20542932.953                    20542936.559
        49.900          42.400
 119894897.206 7  93424618.32045  22815242.953                    22815247.688
        45.300          30.900
 126919958.977 6  98898730.11043  24152073.680                    24152079.766
        38.700          21.700
 126017678.563 6  98195640.25143  23980368.641                    23980376.867
        38.100          22.500
 125330818.778 6  97660427.43143  23849670.688                    23849674.758
        37.900          21.100
 105296805.817 8  82049471.15447  20037313.992                    20037318.637
        52.800          47.000
 119306875.521 7  92966414.04945  22703345.984                    22703349.383
        46.000          34.300
 128481864.80015 100115747.88353  24449287.492                    24449290.887
        33.300          19.300
 20  1  1  0 19  0.0000000  0  9G05G13G29G30G24G20G15G21G02
 116365432.827 8  90674389.84446  22143605.500                    22143610.199
        49.500          37.700
 107997132.842 8  84153531.55647  20551145.188                    20551149.250
        50.000          42.700
 119976669.170 7  93488336.70345  22830803.367                    22830808.586
        45.400          30.500
 126973745.167 6  98940641.45343  24162308.609                    24162315.555
        37.700          22.300
 125904328.631 6  98107315.65743  23958798.359                    23958806.906
        37.200          22.500
 125243911.295 6  97592707.32443  23833132.313                    23833136.914
        38.100          21.100
 105279234.917 8  82035779.54147  20033970.570                    20033974.555
        53.100          47.200
 119237325.787 7  92912219.44645  22690110.945                    22690114.438
        45.700          34.900
 128584845.14615                  24468883.906
        34.400
 20  1  1  0 19 30.0000000  0  9G05G13G29G30G24G20G15G21G02
 116431408.042 8  90725799.08446  22156160.375                    22156165.184
        48.800          38.000
 108040752.922 8  84187521.22947  20559445.883                    20559449.773
        50.000          43.700
 120058753.285 7  93552298.32745  22846423.594                    22846428.371
        45.700          31.200
 127027995.484 6  98982914.43943  24172631.852                    24172639.477
        38.300          22.200
 125791013.689 6  98019018.31943  23937236.500                    23937243.945
        37.900          22.900
 125157026.535 6  97525004.90843  23816599.063                    23816604.180
        38.000          21.800
 105262166.816 8  82022479.72647  20030722.359                    20030726.504
        52.800          47.600
 119168029.306 7  92858222.19145  22676924.773                    22676927.539
        45.900          34.800
 128687974.08115 100276352.45253  24488509.172                    24488512.230
        34.800          18.600
 20  1  1  0 20  0.0000000  0  9G05G13G29G30G24G20G15G21G02
 116497551.558 8  90777339.47046  22168747.102                    22168751.809
        49.100          37.400
 108084832.369 8  84221868.84947  20567834.125                    20567838.031
        51.300          42.900
 120141144.448 7  93616499.20345  22862102.156                    22862106.840
        45.800          30.400
 127082706.729 6  99025546.60943  24183043.063                    24183049.941
        37.900          21.700
 125677734.604 6  97930748.92643  23915679.313                    23915687.508
        38.200          23.200
 125070163.583 6  97457319.47543  23800069.680                    23800074.203
        38.200          22.000
 105245599.374 9  82009570.03647  20027569.656                    20027573.934
        54.000          47.700
 119098987.067 7  92804423.04945  22663786.273                    22663789.754
        46.000          35.200
 128791249.45015 100356826.67352  24508162.188                    24508164.309
        33.800          16.300
 20  1  1  0 20 30.0000000  0  9G05G13G29G30G24G20G15G21G02
 116563864.289 8  90829011.70246  22181365.781                    22181370.746
        48.900          37.000
 108129369.742 8  84256573.29847  20576309.148                    20576312.875
        50.400          43.100
 120223840.192 7  93680937.41845  22877838.500                    22877843.656
        45.800          30.900
 127137877.813 6  99068537.04743  24193542.484                    24193549.156
        38.400          22.300
 125564495.300 6  97842510.54643  23894131.008                    23894139.023
        37.800          22.500
 124983323.662 6  97389652.01343  23783544.734                    23783549.113
        38.300          21.300
 105229532.958 8  81997050.74947  20024512.344                    20024516.723
        52.900          47.600
 119030201.263 7  92750823.71445  22650696.680                    22650700.184
        46.200          34.900
 128894669.23615 100437413.45453  24527841.695                    24527844.742
        35.000          18.300
 20  1  1  0 21  0.0000000  0  9G05G13G29G30G24G20G15G21G02
 116630346.955 8  90880816.35946  22194017.172                    22194021.738
        48.500          37.500
 108174365.075 8  84291634.60247  20584871.359                    20584875.605
        50.500          43.300
 120306839.552 7  93745612.22245  22893633.156                    22893637.906
        45.300          30.900
 127193509.472 6  99111886.37943  24204127.852                    24204135.270
        37.000          21.700
 125451300.023 6  97754306.46243  23872590.719                    23872598.754
        38.100          22.600
 124896509.360 6  97322004.48043  23767024.609                    23767028.531
        37.400          21.300
 105213969.156 8  81984923.11847  20021550.703                    20021555.063
        53.000          47.600
 118961676.445 7  92697427.76045  22637656.445                    22637659.930
        46.100          35.000
 128998234.16715 100518113.37652  24547549.164                    24547552.895
        33.600          17.800
 20  1  1  0 21 30.0000000  0  9G05G13G29G30G24G20G15G21G02
 116696998.331 8  90932752.48046  22206700.469                    22206705.074
        48.700          37.200
 108219815.151 8  84327050.24447  20593520.227                    20593523.949
        51.100          43.000
 120390137.845 7  93810519.95645  22909484.141                    22909488.926
        45.700          31.000
 127249598.677 6  99155592.26743  24214801.805                    24214808.527
        37.600          22.000
 125338150.659 6  97666138.15643  23851058.805                    23851066.398
        38.400          23.200
 124809720.473 6  97254376.78143  23750508.867                    23750513.309
        38.300          20.900
 105198906.180 8  81973185.73147  20018684.406                    20018688.582
        53.700          47.900
 118893413.254 7  92644235.66145  22624666.766                    22624670.156
        46.400          35.400
 129101941.39615                  24567283.977
        33.300
 20  1  1  0 22  0.0000000  0  9G05G13G29G30G24G20G15G21G02
 116763818.796 8  90984820.35946  22219416.461                    22219420.465
        48.600          37.300
 108265718.205 8  84362818.85647  20602255.094                    20602259.566
        49.800          42.700
 120473732.464 7  93875658.58445  22925392.148                    22925396.762
        46.500          31.500
 127306144.022 6  99199653.52343  24225561.773                    24225569.160
        37.100          21.100
 125225051.126 6  97578008.69844  23829536.938                    23829544.551
        37.700          24.300
 124722957.835 6  97186769.54543  23733998.977                    23734002.953
        38.200          21.500
 105184343.903 9  81961838.50847  20015913.102                    20015917.254
        54.100          47.600
 118825413.371 7  92591248.73145  22611726.977                    22611730.238
        46.600          34.200
 129205787.595 5 100679843.19352  24587045.914                    24587048.434
        34.700          16.900
 20  1  1  0 22 30.0000000  0  9G05G13G29G30G24G20G15G21G02
 116830806.146 8  91037018.27746  22232163.430                    22232167.762
        48.600          37.700
 108312070.028 8  84398937.16447  20611075.570                    20611079.789
        50.500          42.700
 120557618.199 7  93941024.07445  22941354.695                    22941359.488
        45.400          30.700
 127363141.859 6  99244067.42243  24236408.305                    24236415.531
        37.300          21.300
 125112001.544 6  97489918.13144  23808024.641                    23808031.793
        38.400          24.400
 124636219.865 6  97119181.50843  23717493.406                    23717496.801
        38.900          21.800
 105170279.934 8  81950879.57548  20013236.945                    20013240.980
        53.200          48.000
 118757677.234 7  92538467.33445  22598837.203                    22598840.582
        46.600          35.600
 129309770.20915 100760868.59252  24606832.969                    24606836.281
        32.200          17.400
 20  1  1  0 23  0.0000000  0  9G05G13G29G30G24G20G15G21G02
 116897962.045 8  91089347.52545  22244942.758                    22244947.625
        49.300          35.800
 108358870.557 8  84435405.10446  20619981.508                    20619985.680
        50.500          41.500
 120641793.396 7  94006615.11144  22957372.867                    22957377.617
        45.500          29.500
 127420592.373 6  99288834.02443  24247340.453                    24247347.395
        37.500          20.900
 124999007.169 6  97401870.58943  23786522.555                    23786529.723
        38.400          22.800
 124549509.369 6  97051614.88643  23700992.672                    23700996.570
        38.100          20.100
 105156715.551 9  81940309.92647  20010655.578                    20010659.711
        54.200          46.600
 118690209.319 7  92485894.93445  22585998.766                    22586002.172
        46.400          34.200
 129413889.002 5 100842000.06942  24626646.078                    24626649.969
        32.600          17.400
 20  1  1  0 23 30.0000000  0  9G05G13G29G30G24G20G15G21G02
 116965284.952 8  91141806.92546  22257753.727                    22257758.680
        48.600          37.500
 108406116.678 8  84472220.26547  20628972.266                    20628976.574
        51.200          43.100
 120726254.501 7  94072428.92745  22973445.039                    22973450.344
        45.500          31.200
 127478493.007 6  99333951.37543  24258358.563                    24258365.828
        38.100          21.100
 124886069.789 6  97313867.46344  23765031.148                    23765039.031
        38.800          24.100
 124462826.099 6  96984069.51443  23684497.953                    23684501.590
        38.700          21.700
 105143649.073 8  81930128.26248  20008169.219                    20008173.840
        53.000          48.100
 118623010.317 7  92433532.07245  22573210.883                    22573214.141
        46.700          35.500
 129518140.931 5 100923235.30543  24646485.063                    24646489.305
        32.800          19.600
 20  1  1  0 24  0.0000000  0  9G05G13G29G30G24G20G15G21G02
 117032773.958 8  91194395.73946  22270596.508                    22270601.078
        49.100          36.600
 108453805.664 8  84509380.50846  20638047.203                    20638051.215
        50.900          41.400
 120810997.064 7  94138462.06545  22989570.961                    22989576.133
        45.400          30.300
 127536841.279 6  99379417.51543  24269462.234                    24269469.465
        37.800          19.600
 124773191.967 6  97225910.75944  23743551.109                    23743559.004
        38.700          24.600
 124376169.705 6  96916545.04843  23668007.109                    23668010.762
        38.100          20.900
 105131079.551 8  81920333.82747  20005777.227                    20005781.922
        53.900          47.000
 118556081.444 7  92381379.70045  22560474.148                    22560478.004
        46.400          34.600
 129622523.155 5 101004572.04442  24666348.320                    24666351.996
        32.900          17.800
 20  1  1  0 24 30.0000000  0  9G05G13G29G30G24G20G15G21G02
 117100428.873 8  91247113.84146  22283470.906                    22283475.879
        48.800          36.900
 108501935.808 8  84546884.51347  20647206.453                    20647209.980
        50.300          43.000
 120896018.303 7  94204712.35445  23005750.109                    23005755.344
        45.700          30.200
 127595635.682 6  99425231.30943  24280650.586                    24280657.129
        37.200          20.900
 124660376.354 6  97138002.50644  23722082.984                    23722090.945
        38.000          24.800
 124289541.295 6  96849042.40843  23651522.273                    23651526.918
        37.300          21.700
 105119006.641 8  81910926.36847  20003479.922                    20003484.508
        53.800          47.900
 118489424.922 7  92329439.54845  22547790.477                    22547793.617
        46.300          35.800
 129727034.355 5 101086009.28642  24686235.445                    24686239.648
        33.000          16.300
 20  1  1  0 25  0.0000000  0  9G05G13G29G30G24G20G15G21G02
 117168250.194 8  91299961.61246  22296376.773                    22296381.473
        49.100          37.100
 108550505.224 8  84584730.81947  20656448.359                    20656452.699
        50.100          42.600
 120981315.557 7  94271177.72845  23021981.617                    23021987.113
        45.400          30.600
 127654874.903 6  99471391.72443  24291923.164                    24291930.668
        37.400          21.700
 124547627.206 6  97050146.05943  23700627.328                    23700634.926
        38.100          23.000
 124202942.054 6  96781562.47343  23635042.570                    23635047.625
        37.100          22.000
 105107430.069 9  81901905.66047  20001276.781                    20001281.180
        54.200          47.900
 118423043.417 7  92277713.69946  22535158.523                    22535162.414
        46.100          36.000
 129831672.660 5 101167545.56042  24706148.328                    24706152.066
        34.500          17.400
 20  1  1  0 25 30.0000000  0  9G05G13G29G30G24G20G15G21G02
 117236237.686 8  91352938.86846  22309314.461                    22309319.180
        49.300          36.700
 108599512.417 8  84622918.24347  20665774.031                    20665777.988
        49.900          42.200
 121066885.593 7  94337855.65745  23038265.266                    23038270.250
        45.100          30.500
 127714557.413 6  99517897.53043  24303280.023                    24303287.473
        36.700          19.300
 124434946.556 6  96962342.99244  23679185.094                    23679192.285
        38.700          25.600
 124116372.673 6  96714105.82243  23618569.664                    23618573.793
        37.900          21.800
 105096349.270 8  81893271.28147  19999168.328                    19999173.215
        53.500          47.900
 118356938.861 7  92226203.64646  22522579.219                    22522582.742
        46.300          36.100
 129936436.314 5 101249179.50242  24726084.188                    24726087.699
        34.800          17.800
 20  1  1  0 26  0.0000000  0  9G05G13G29G30G24G20G15G21G02
 117304392.299 8  91406046.33646  22322283.984                    22322288.992
        48.400          36.300
 108648955.782 8  84661445.53647  20675182.211                    20675187.277
        50.200          42.900
 121152726.614 7  94404744.73645  23054600.766                    23054605.441
        45.400          31.600
 127774682.538 6  99564748.26343  24314722.047                    24314729.219
        37.300          20.900
 124322339.662 6  96874597.39244  23657755.703                    23657764.520
        38.100          24.800
 124029834.937 6  96646673.81743  23602101.586                    23602105.438
        36.800          21.700
 105085765.007 8  81885023.80648  19997154.469                    19997158.602
        53.300          48.000
 118291114.317 7  92174911.79046  22510053.063                    22510056.504
        45.800          36.000
 130041324.769 5 101330910.74942  24746043.703                    24746047.031
        33.700          15.600
 20  1  1  0 26 30.0000000  0  9G05G13G29G30G24G20G15G21G02
 117372712.783 8  91459283.05746  22335284.883                    22335289.543
        48.300          36.600
 108698832.238 8  84700310.30647  20684674.188                    20684678.695
        50.600          42.600
 121238834.182 7  94471841.53144  23070985.898                    23070991.309
        45.000          29.800
 127835247.509 6  99611941.71343  24326247.359                    24326253.840
        37.400          20.400
 124209807.804 6  96786910.27044  23636342.688                    23636350.020
        38.200          24.800
 123943328.912 6  96579266.52343  23585640.070                    23585644.668
        37.000          22.000
 105075675.592 8  81877161.92648  19995234.086                    19995238.570
        53.900          48.100
 118225571.000 7  92123839.07345  22497580.859                    22497584.094
        46.200          35.900
 130146335.138 5 101412736.92442  24766025.156                    24766029.398
        33.000          17.400
 20  1  1  0 27  0.0000000  0  9G05G13G29G30G24G20G15G21G02
 117441197.543 8  91512647.78146  22348317.094                    22348321.844
        48.600          36.500
 108749138.679 8  84739510.12447  20694247.086                    20694251.102
        51.000          42.800
 121325203.927 7  94539142.60545  23087421.742                    23087426.086
        45.000          30.600
 127896249.260 6  99659475.50943  24337854.906                    24337862.371
        37.100          19.300
 124097353.016 6  96699283.19943  23614942.680                    23614950.500
        37.400          23.300
 123856853.744 6  96511883.26643  23569184.055                    23569188.887
        37.100          21.700
 105066079.100 8  81869684.14248  19993407.883                    19993412.492
        53.500          48.100
 118160309.890 7  92072986.25946  22485161.469                    22485165.656
        45.800          36.400
 130251463.770 6 101494655.25442  24786031.953                    24786035.598
        36.200          17.800
 20  1  1  0 27 30.0000000  0  9G05G13G29G30G24G20G15G21G02
 117509847.193 7  91566140.98946  22361380.586                    22361384.953
        47.600          36.100
 108799873.815 8  84779043.98247  20703901.789                    20703905.969
        50.600          42.500
 121411833.252 7  94606645.96345  23103906.789                    23103911.773
        44.900          30.400
 127957686.805 6  99707348.91243  24349546.273                    24349553.496
        37.300          19.000
 123984978.919 6  96611719.00044  23593558.328                    23593566.668
        38.200          24.300
 123770411.082 6  96444525.39643  23552735.391                    23552738.691
        38.100          22.000
 105056975.699 8  81862590.58447  19991675.820                    19991680.258
        53.400          47.900
 118095333.709 7  92022355.46646  22472797.195                    22472800.887
        45.900          36.400
